순번,이름,주소,메모,위도,경도,등록일
1,"대도조명백화점","서울 중구 창경궁로 70 (주교동)","",,,"2022-02-25 21:59:52"
2,"충무로애견거리","서울 중구 퇴계로 227 (충무로4가)","",,,"2022-02-25 22:04:08"
3,"부산복집","서울 서초구 반포대로20길 10 (서초동)","",,,"2022-02-27 14:57:23"
4,"서울 서초구 서초동 1487-32","명달로8길 21","더공감",,,"2022-03-06 10:48:29"
5,"서초보쌈","서울 서초구 서초대로 341 1층 (서초동)","",37.49550318,127.01874913,"2022-03-07 22:28:43"
6,"서울숲 공영주차장","서울 성동구 성수동1가 643","",,,"2022-03-12 18:42:23"
7,"한가커피","서울 마포구 동교로46길 25 (연남동)","",,,"2022-03-12 23:02:27"
8,"광한루남원추어탕","경기 수원시 팔달구 권광로 269 (인계동)","",,,"2022-03-12 23:03:16"
9,"공리특허짬뽕 수원인계점","경기 수원시 팔달구 권광로285번길 7 2층 (인계동)","",,,"2022-03-12 23:14:10"
10,"무탄","서울 강남구 논현로176길 22 1층 (신사동)","",37.52729542,127.03030774,"2022-03-15 08:18:24"
11,"겐코","경기 수원시 영통구 대학로 34 (이의동)","",37.29926218,127.04364346,"2022-03-15 19:44:24"
12,"이한부대찌개닭개장 경기대광교점","경기 수원시 영통구 대학1로 42 (이의동)","",,,"2022-03-15 19:44:45"
13,"쭈꾸미통닭발","경기 수원시 영통구 대학1로 12-1 101호 (이의동)","",,,"2022-03-15 19:45:30"
14,"히노아지 광교아브뉴프랑점","경기 수원시 영통구 센트럴타운로 85 203동 2층 A208,209호 (이의동)","",,,"2022-03-15 19:55:41"
15,"책발전소 광교점","경기 수원시 영통구 광교호수공원로 80 엘리웨이광교 B117호 (원천동)","",,,"2022-03-17 01:54:49"
16,"바닐라선데이","경기 수원시 영통구 대학1로64번길 14 103호 (이의동)","",,,"2022-03-17 01:55:45"
17,"커피 바이브","경기 수원시 영통구 광교호수공원로 277 광교중흥S클래스 어뮤즈스퀘어 B2층 248호 (원천동)","",,,"2022-03-17 01:57:14"
18,"컬렉션커피","경기 수원시 영통구 센트럴타운로 107 1층 (이의동)","",,,"2022-03-17 01:58:13"
19,"금돼지식당","서울 중구 다산로 149 (신당동)","",,,"2022-03-18 11:26:51"
20,"민트하임","서울 마포구 잔다리로6길 28 1층 (서교동)","",37.55219432,126.92066893,"2022-03-19 09:23:25"
21,"풍국면 광교앨리웨이점","경기 수원시 영통구 광교호수공원로 80 1층 (원천동)","",,,"2022-03-21 09:03:43"
22,"수린 광교점","경기 수원시 영통구 광교호수공원로 300 포레나 광교 지하1층 (하동)","",,,"2022-03-22 18:00:32"
23,"긴자료코 광교점","경기 용인시 수지구 광교중앙로 316 1층 103호 (상현동)","",,,"2022-03-22 18:00:51"
24,"상해루","경기 화성시 노작로 147 DM프라자 202호 (반송동)","",,,"2022-03-22 18:01:50"
25,"수원삼계탕","경기 수원시 영통구 동수원로537번길 6 1층 (원천동)","",,,"2022-03-29 13:14:09"
26,"레알라면","서울 동대문구 회기로25길 23-5 (회기동)","",,,"2022-04-07 08:05:15"
27,"오리올","서울 용산구 신흥로20길 43 (후암동)","",,,"2022-04-12 17:59:38"
28,"다운타우너 갤러리아광교","경기 수원시 영통구 광교중앙로 124 9층 (하동)","",,,"2022-04-12 18:00:19"
29,"구스아일랜드 브루하우스","서울 강남구 역삼로 118 1층 (역삼동)","",,,"2022-04-12 18:00:42"
30,"순대만드는집","서울 서초구 방배천로8길 6-2 (방배동)","",37.48049083,126.98286007,"2022-04-17 11:56:33"
31,"호시라멘","서울 서초구 방배천로2안길 39 1층 (방배동)","",37.4787412,126.98382033,"2022-04-17 11:57:49"
32,"신사강정육점식당","경기 수원시 장안구 정조로1088번길 11 (송죽동)","",37.30270043,127.00327552,"2022-05-10 07:44:17"
33,"이나경송탄부대찌개","경기 수원시 팔달구 효원로307번길 47 문화빌딩 1층 (인계동)","",37.26293664,127.03599941,"2022-05-12 07:11:43"
34,"유치회관","경기 수원시 팔달구 효원로292번길 67 (인계동)","",37.25876861,127.03218609,"2022-05-12 07:12:03"
35,"태화장 본점","경기 수원시 팔달구 아주로13번길 22 1층 (우만동)","",37.27612296,127.04268861,"2022-05-12 07:14:23"
36,"평장원 본점","경기 수원시 팔달구 인계로108번길 23 1,2층 (인계동)","",37.26664806,127.02937997,"2022-05-12 07:16:16"
37,"로마경양식","경기 수원시 팔달구 경수대로 549 (인계동)","",37.27493946,127.02930765,"2022-05-12 07:18:05"
38,"코끼리만두","경기 수원시 팔달구 중부대로3번길 27 (팔달로3가)","",37.27652226,127.0171928,"2022-05-12 07:23:55"
39,"마포옥","서울 마포구 토정로 312 1층 (용강동)","",37.53986369,126.94333458,"2022-05-16 07:39:15"
40,"마포양지설렁탕","서울 마포구 새창로 6 (도화동)","",37.54202931,126.95050685,"2022-05-16 07:39:30"
41,"원조조박집 본관","서울 마포구 토정로 313-1 1층 (용강동)","",37.53997206,126.9438663,"2022-05-16 07:39:48"
42,"마루심 마포점","서울 마포구 토정로 316 성진빌딩 1층 (용강동)","",37.53949975,126.94346611,"2022-05-16 07:41:09"
43,"마루심 본점","서울 서초구 고무래로10길 10 청구빌딩 1층 (반포동)","",37.50189414,127.01048141,"2022-05-16 07:41:32"
44,"수퍼 마포점","서울 마포구 삼개로 20 근신빌딩 별관 103호 (도화동)","",37.53868698,126.94721871,"2022-05-16 07:43:16"
45,"빈솔트","경기 안산시 단원구 대부북동 1870-78","",37.28117604,126.55209044,"2022-05-17 16:40:57"
46,"카페루헤","경기 안산시 단원구 서위매봉길 32 (대부북동)","",37.28231837,126.56853568,"2022-05-17 16:41:20"
47,"대부 DBB","경기 안산시 단원구 구봉길 59 (대부북동)","",37.27168918,126.5632127,"2022-05-17 18:13:01"
48,"삐쭉이칼국수","경기 안산시 단원구 대부황금로 1337 (대부북동)","",37.27564214,126.56914882,"2022-05-17 18:13:49"
49,"명가","경기 의왕시 솔고개길 23 (왕곡동)","",37.3434082,126.985031,"2022-05-17 18:17:05"
50,"송정식당","서울 종로구 종로40가길 13 (종로5가)","",37.57023355,127.00589976,"2022-05-18 08:21:42"
51,"진고개","서울 종로구 종로 301-1 (창신동)","",37.57203875,127.01128815,"2022-05-18 08:24:43"
52,"에베레스트 레스토랑 동대문점","서울 종로구 종로51가길 2-1 2층 (창신동)","",37.57257202,127.01250173,"2022-05-18 08:25:08"
53,"원조원할매소문난닭한마리","서울 종로구 종로5가 282-21","",37.57029124,127.00529756,"2022-05-18 08:29:18"
54,"남이분식","서울 종로구 종로40가길 3 (종로5가)","",37.57028037,127.00648386,"2022-05-18 08:32:03"
55,"스타사마르칸트","서울 중구 을지로42길 14 1층 (을지로6가)","",37.56570336,127.00566397,"2022-05-18 08:33:31"
56,"파르투내","서울 중구 마른내로 154 1,2층 (광희동1가)","",37.56461138,127.0050074,"2022-05-18 08:34:59"
57,"울란바타르","서울 중구 을지로44길 12 2층 (광희동1가)","",37.56562043,127.00637479,"2022-05-18 08:37:36"
58,"평양면옥","서울 중구 장충단로 207 (장충동1가)","",37.56324809,127.00669603,"2022-05-18 08:38:26"
59,"중화요리팔공","서울 관악구 남부순환로 1680 지하1층 (신림동)","",37.48405234,126.93711293,"2022-05-18 22:15:24"
60,"논밭골 봉천점","서울 관악구 청룡길 30 (봉천동)","",37.48049593,126.94594817,"2022-05-18 22:17:10"
61,"안녕부산","서울 관악구 관악로14길 45 (봉천동)","",37.47878961,126.95500306,"2022-05-18 22:18:18"
62,"아리차이 신림점","서울 관악구 신림동길 4 1층 (신림동)","",37.4876153,126.92827232,"2022-05-19 21:53:38"
63,"애플하우스(이수)","서울 동작구 동작대로27다길 29 서광시티뷰 2층 201호 (사당동)","",37.48627675,126.98057476,"2022-05-19 22:06:38"
64,"또보겠지 떡볶이집 강남헬로몽키점","서울 강남구 봉은사로6길 30 2층 (역삼동)","",37.50308439,127.0272512,"2022-05-19 22:09:15"
65,"신토불이떡볶이 본점","서울 광진구 자양로43길 42 1층 (구의동)","",37.55256473,127.09047634,"2022-05-19 22:10:08"
66,"나누미떡볶이 성대본점","서울 종로구 성균관로 9-1 (명륜2가)","",37.58370174,126.99791682,"2022-05-19 22:11:34"
67,"현선이네 용산본점","서울 용산구 한강대로39길 2-13 (한강로2가)","",37.53113357,126.96924947,"2022-05-19 22:12:28"
68,"삼막칡냉면 안양점","경기 안양시 만안구 삼막로39번길 39 2층 (석수동)","",37.42505966,126.9120679,"2022-05-20 07:14:26"
69,"청송산오징어","서울 관악구 남현1길 8 (남현동)","",37.47578132,126.97785516,"2022-05-20 19:58:02"
70,"훈감동","서울 동작구 동작대로9길 4 1층 (사당동)","",37.48069602,126.98128735,"2022-05-20 20:00:29"
71,"경성모밀","서울 동작구 동작대로29가길 6 1층 (사당동)","",37.48824109,126.98142907,"2022-05-20 20:07:41"
72,"황제소고기국밥","서울 동작구 동작대로29길 11 (사당동)","",37.48791311,126.98133417,"2022-05-20 20:08:46"
73,"유정우함흥냉면","서울 동작구 동작대로29다길 7-1 (사당동)","",37.48858329,126.98032992,"2022-05-20 20:10:58"
74,"방배김밥","서울 동작구 동작대로27길 59-16 (사당동)","",37.48812524,126.9784033,"2022-05-20 20:12:14"
75,"홍콩참치만두","서울 동작구 동작대로33길 16 (사당동)","",37.48978,126.98136537,"2022-05-20 20:13:24"
76,"용순가재골수제비","서울 노원구 동일로242길 100 1층 (상계동)","",37.6744155,127.06064428,"2022-05-21 22:06:36"
77,"버터맨션","경기 수원시 팔달구 화서문로 41 2, 3층 (장안동)","",37.28530618,127.01250367,"2022-05-22 08:55:24"
78,"평지담","경기 수원시 팔달구 정조로 847 3층 (신풍동)","",37.28364785,127.01600362,"2022-05-22 08:55:47"
79,"레드브릭커피하우스","경기 수원시 팔달구 화서문로31번길 9-8 1층 (장안동)","",37.28555144,127.01074453,"2022-05-22 08:57:05"
80,"에버닌","경기 수원시 팔달구 화서문로31번길 9-5 1층 (장안동)","",37.28537122,127.01084825,"2022-05-22 08:57:41"
81,"NoSmokeWithoutFire","경기 수원시 팔달구 매산로 139-5 1층 (교동)","",37.2727417,127.01569463,"2022-05-22 08:58:21"
82,"뜰리저브","경기 수원시 팔달구 향교로137번길 49 (교동)","",37.27418633,127.01359664,"2022-05-22 08:59:11"
83,"수수가든카페","경기 과천시 구리안로 60 (문원동)","",37.41802466,126.9946341,"2022-05-22 09:01:33"
84,"온기정","서울 강남구 압구정로4길 13-9 1층 (신사동)","",37.52219779,127.020878,"2022-05-22 10:11:47"
85,"거북이","서울 서초구 방배천로4안길 48 1층 (방배동)","",37.48019358,126.98341413,"2022-05-23 18:13:11"
86,"미림분식","서울 관악구 호암로 553 (신림동)","",37.46708133,126.93136211,"2022-05-26 07:26:24"
87,"정원쌈밥보리밥","서울 관악구 신림로18가길 23 (신림동)","",37.47195246,126.93502943,"2022-05-26 07:28:04"
88,"씬챠호","서울 관악구 대학길 52 지하1층 (신림동)","",37.46827049,126.93755571,"2022-05-26 07:32:01"
89,"명운추어탕","서울 관악구 신림로18가길 32 (신림동)","",37.47226224,126.93472619,"2022-05-26 07:32:32"
90,"쿠버타코 서울대직영점","서울 관악구 신림로 91 5,6호 (신림동)","",37.47032919,126.93906428,"2022-05-26 07:33:49"
91,"발루토","서울 관악구 신림로23길 28 1층 (신림동)","",37.46975381,126.93469672,"2022-05-26 07:41:45"
92,"테이블포포","서울 서초구 사평대로14길 11 2층 (반포동)","",37.49768137,126.99445426,"2022-05-27 20:45:54"
93,"두툼","서울 중구 중림로 10 삼성사이버빌리지 3동 1층 105호 (중림동)","",37.55835733,126.96620512,"2022-05-27 21:05:30"
94,"비터버터","서울 마포구 동교로46길 25 bo2호 (연남동)","",37.5623233,126.92618495,"2022-05-29 21:58:59"
95,"고온항","경기 화성시 우정읍 매향리 945-21","",37.03396104,126.74706579,"2022-05-31 17:09:01"
96,"매향리 평화생태공원","경기 화성시 우정읍 고온리안길 24-11 (우정읍 매향리)","",37.0436404,126.7556768,"2022-05-31 17:09:29"
97,"시화방조제 중간선착장","경기 시흥시 정왕동 2377","",37.32634759,126.65457277,"2022-05-31 17:10:02"
98,"궁평항","경기 화성시 서신면 궁평항로 1049-24 (서신면 궁평리)","",37.11600964,126.68128092,"2022-05-31 17:10:34"
99,"린궁즈멘관","서울 영등포구 디지털로37나길 10 1층 (대림동)","",37.49075837,126.89915459,"2022-06-01 08:01:46"
100,"기와집사천요리","서울 영등포구 디지털로37길 25 (대림동)","",37.49082221,126.8979559,"2022-06-01 08:02:40"
101,"대독장 서울역점","서울 용산구 후암로 107 1층 (동자동)","",37.55346139,126.97356341,"2022-06-01 08:32:59"
102,"전주집 2호점","서울 중구 수표로 48-18 (저동2가)","",37.5654085,126.99066648,"2022-06-01 08:34:09"
103,"일미장어","서울 용산구 후암로57길 35-15 1층 (동자동)","",37.55212812,126.9745326,"2022-06-01 08:39:01"
104,"유즈라멘 만리동점","서울 중구 만리재로 217 (만리동1가)","",37.55681539,126.96823845,"2022-06-01 08:39:43"
105,"이이네","서울 용산구 소월로2길 13 지하1층 (후암동)","",37.55437026,126.97673642,"2022-06-01 08:41:28"
106,"조대포 남영본점","서울 용산구 한강대로 272-1 1층 (남영동)","",37.54263485,126.97296978,"2022-06-01 08:53:59"
107,"구복만두","서울 용산구 두텁바위로 7 1층 (갈월동)","",37.54540633,126.97299141,"2022-06-01 08:55:31"
108,"이치젠덴푸라메시","서울 용산구 한강대로72길 11-21 1층 (남영동)","",37.54120786,126.97383477,"2022-06-01 08:57:33"
109,"몽르베","경기 용인시 수지구 이종무로203번길 6-5 (고기동)","",37.36070025,127.03455942,"2022-06-01 10:26:34"
110,"88생선구이","강원 속초시 중앙부두길 71 (중앙동)","",38.20373027,128.59196784,"2022-06-01 20:42:50"
111,"바다정원","강원 고성군 토성면 버리깨길 23 (토성면 용촌리)","",38.23143245,128.58288502,"2022-06-01 20:44:08"
112,"강릉짬뽕순두부 강릉본점","강원 강릉시 초당순두부길 116 (강문동)","",37.79261475,128.91745174,"2022-06-01 20:47:25"
113,"마카오박","강원 속초시 중앙로129번길 4 (중앙동)","",38.20296923,128.59029597,"2022-06-01 20:47:37"
114,"속초등대전망대 주차장","강원 속초시 영랑동 1-4","",38.21382006,128.60066175,"2022-06-01 20:49:47"
115,"속초붉은대게수산","강원 속초시 중앙시장로6길 14-1 속초관광수산시장 77호 (중앙동)","",38.20496265,128.58943748,"2022-06-01 20:52:22"
116,"소노문델피노 오션플레이","강원 고성군 토성면 미시령옛길 1153 (토성면 원암리)","",38.21199733,128.4948796,"2022-06-01 20:52:48"
117,"봉포머구리집 본점","강원 속초시 영랑해안길 223 1~3층 (영랑동)","",38.21873086,128.59327897,"2022-06-01 20:54:50"
118,"칠성조선소","강원 속초시 중앙로46번길 45 (교동)","",38.19859433,128.58353892,"2022-06-01 20:56:47"
119,"대관령한우마을","강원 속초시 엑스포로 39 (조양동)","",38.19102489,128.58693156,"2022-06-01 20:59:48"
120,"흑돼지삼백식당 강원속초점","강원 속초시 청초호반로 77 (조양동)","",38.18993384,128.58607696,"2022-06-01 21:00:29"
121,"옥이네밥상","강원 속초시 미리내길 40 (청호동)","",38.19420276,128.59585129,"2022-06-01 21:01:32"
122,"아루나","강원 속초시 청호해안길 85 (청호동)","",38.19670619,128.59816379,"2022-06-01 21:02:01"
123,"일품흑돈","강원 속초시 엑스포로 47 (조양동)","",38.19100395,128.58588102,"2022-06-01 21:06:03"
124,"청수당","서울 종로구 돈화문로11나길 31-9 (익선동)","",37.57388048,126.98978472,"2022-06-02 07:32:16"
125,"올랄라파리","서울 종로구 서순라길 127 1층 (권농동)","",37.57587361,126.99129686,"2022-06-02 07:34:59"
126,"하이웨이스트 익선점","서울 종로구 돈화문로11다길 18 (돈의동)","",37.57312372,126.99067231,"2022-06-02 07:37:23"
127,"전주집","서울 중구 충무로11길 18-8 (입정동)","",37.56760068,126.99145402,"2022-06-02 12:51:31"
128,"황평집","서울 중구 마른내로 74 (인현동2가)","",37.56406722,126.99612903,"2022-06-02 12:52:27"
129,"산수갑산","서울 중구 을지로20길 24 1층 (인현동1가)","",37.56537904,126.99532758,"2022-06-02 12:52:59"
130,"양미옥 남대문점","서울 중구 남대문로5길 9-1 (북창동)","",37.56151734,126.97868999,"2022-06-02 12:53:45"
131,"용강식당","서울 중구 을지로20길 40 (인현동2가)","",37.56462581,126.99542271,"2022-06-02 12:54:16"
132,"조선옥","서울 중구 을지로15길 8 (을지로3가)","",37.56685298,126.99345758,"2022-06-02 12:55:48"
133,"수원양반댁도가니","경기 수원시 팔달구 장다리로196번길 1 (인계동)","",37.26725811,127.025299,"2022-06-02 14:31:23"
134,"영종도복촌","인천 중구 구읍로 33 프라임프라자 3층 301호 (중산동)","",37.49257274,126.57660373,"2022-06-02 17:04:18"
135,"함흥냉면옥","강원 속초시 청초호반로 299 1층 (금호동)","",38.2019717,128.58985417,"2022-06-04 08:39:09"
136,"명현만의연평도간장게장 검단본점","인천 서구 완정로 172 (마전동)","",37.60259402,126.65714981,"2022-06-05 23:25:41"
137,"안반데기","강원 강릉시 왕산면 안반데기길 428 (왕산면 대기리)","",37.62290058,128.73914128,"2022-06-07 17:55:14"
138,"육백마지기","강원 정선군 정선읍 회동리","",37.40697857,128.51257078,"2022-06-07 17:55:56"
139,"평장원","경기 수원시 팔달구 중부대로 22-13 1층 (구천동)","",37.27461538,127.01903698,"2022-06-11 11:50:25"
140,"우스1123","서울 강북구 오현로4길 12 상가 104호 (미아동)","",37.61589905,127.03121581,"2022-06-12 22:14:25"
141,"라핀부쉬","서울 용산구 이태원로55가길 15 (한남동)","",37.53754189,127.0003847,"2022-06-14 08:04:31"
142,"서울 용산구 이태원동 57-28","녹사평대로40길 57","단밤",37.53450159,126.98907244,"2022-06-14 11:01:58"
143,"케이북스 홍대본관","서울 마포구 양화로 161 케이스퀘어 지하1층 (동교동)","",37.55693531,126.92331221,"2022-06-15 22:11:21"
144,"모이커피클래식 수원","경기 수원시 팔달구 월드컵로 325 (우만동)","",37.2869853,127.03331227,"2022-06-15 22:49:00"
145,"밥순삭꽃게야 수원점","경기 수원시 팔달구 팔달문로150번길 16 1층 (우만동)","",37.28208745,127.03257941,"2022-06-15 22:50:13"
146,"상도실내포장마차","서울 동작구 상도로 288 (상도1동)","",37.50183291,126.94847285,"2022-06-15 23:21:40"
147,"망향비빔국수 화성점","경기 화성시 효행로 1336 (반월동)","",37.2266131,127.06493528,"2022-06-17 11:49:06"
148,"태평소국밥","대전 유성구 온천동로65번길 50 1층 (봉명동)","",36.35747988,127.35021935,"2022-06-17 20:34:44"
149,"클럽에스프레소","서울 종로구 창의문로 132 (부암동)","",,,"2022-06-17 20:35:58"
150,"서관면옥","서울 서초구 서초대로56길 11 1층 (서초동)","",37.4939789,127.01725609,"2022-06-18 15:04:44"
151,"명성돼지갈비","경기 수원시 장안구 팔달로271번길 16-16 2층 (영화동)","",37.28985255,127.01486366,"2022-06-21 21:00:56"
152,"고자리냉면 본점","경기 고양시 덕양구 호국로 915-45 (성사동)","",37.66454939,126.84316635,"2022-06-26 18:59:45"
153,"가타쯔무리","서울 서대문구 명지대길 72 (남가좌동)","",37.58322285,126.9234664,"2022-07-03 07:57:47"
154,"아가페정양원","전북 익산시 황등면 율촌길 9 (황등면 율촌리)","",36.01952488,126.95628538,"2022-07-03 08:25:43"
155,"분옥담계곡","전북 부안군 변산면 중계리","",35.6319884,126.5731776,"2022-07-03 08:29:57"
156,"고기리막국수","경기 용인시 수지구 이종무로 157 (고기동)","",37.3599957,127.04009695,"2022-07-06 20:18:58"
157,"카페아를","경기 의정부시 동일로 204 (장암동)","",37.70706806,127.05833477,"2022-07-09 17:31:41"
158,"뻘다방","인천 옹진군 영흥면 선재로 55 (영흥면 선재리)","",37.23415147,126.53125964,"2022-07-09 17:33:14"
159,"아크메","경기 용인시 기흥구 서천동로91번길 8-14 1층 101호 (농서동)","",37.23320542,127.07077376,"2022-07-14 17:59:02"
160,"스시하쯔","경기 용인시 기흥구 서천동로83번길 4-10 (농서동)","",37.23383872,127.07247824,"2022-07-14 18:00:00"
161,"딥스테이션","경기 용인시 처인구 포곡읍 성산로 521 3층 (포곡읍)","",,,"2022-07-23 07:33:27"
162,"용금옥","서울 중구 다동길 24-2 (다동)","",37.56766245,126.98050837,"2022-07-23 17:37:13"
163,"초류향","서울 중구 다동길 24-10 (다동)","",37.56747864,126.9804405,"2022-07-23 17:37:21"
164,"부민옥","서울 중구 다동길 24-12 (다동)","",37.56750384,126.98031825,"2022-07-23 17:37:27"
165,"애성회관","서울 중구 남대문로5길 23 대경빌딩 1층 (북창동)","",37.56240937,126.97891384,"2022-07-23 17:49:22"
166,"이나니와요스케 서울시청점","서울 중구 을지로 6 재능빌딩 1층 (을지로1가)","",37.56533763,126.97907374,"2022-07-23 17:56:15"
167,"청시행","서울 중구 을지로11길 14 5층 (을지로3가)","",37.56706545,126.99097189,"2022-07-24 08:26:03"
168,"을지 장만옥","서울 중구 을지로12길 12 1층 (을지로3가)","",37.56573559,126.99105808,"2022-07-24 08:26:20"
169,"아인티오펜션","경기 남양주시 화도읍 모꼬지로17번길 48-115 (화도읍 구암리)","",37.68378451,127.37068909,"2022-07-25 10:17:07"
170,"구암막국수","경기 남양주시 화도읍 경춘로2649번길 13 (화도읍 구암리)","",37.6703582,127.37354325,"2022-07-26 10:40:52"
171,"미나미","서울 서초구 서초대로58길 31-2 1층 (서초동)","",37.49333005,127.01811987,"2022-07-29 23:07:44"
172,"산골","서울 관악구 관악로 211 마동 1층 29,46호 (봉천동)","",37.4841954,126.95432142,"2022-08-07 11:53:24"
173,"그집해장국","경기 수원시 장안구 송정로 142 (조원동)","",37.29668451,127.01235667,"2022-08-12 21:42:35"
174,"송죽부산밀면국밥","경기 수원시 장안구 경수대로 914 2층 (조원동)","",37.30134487,127.01026403,"2022-08-12 21:43:07"
175,"우리동네스시카야","경기 수원시 장안구 경수대로 940 일호골든타워 2층 201,202호 (조원동)","",37.30289124,127.00768351,"2022-08-12 21:46:07"
176,"쟈스민","경기 수원시 장안구 파장천로 23 (파장동)","",37.30772453,126.99468933,"2022-08-12 21:49:54"
177,"벨라튀니지","경기 수원시 장안구 서부로2106번길 21 지하 1층 (율전동)","",37.2972187,126.97135704,"2022-08-12 21:50:31"
178,"이영철생오리","경기 수원시 장안구 파장천로 121 1층 (파장동)","",37.31510953,127.00119581,"2022-08-12 21:55:06"
179,"화우","경기 수원시 권선구 권광로91번길 6 (권선동)","",37.25633655,127.02927226,"2022-08-29 17:05:10"
180,"잼배옥","서울 중구 서소문동 60-1 1층","",37.56254798,126.97371639,"2022-09-06 18:45:03"
181,"이남장 본점","서울 중구 삼일대로12길 16 1층 (을지로2가)","",37.56666881,126.98865833,"2022-09-06 18:45:29"
182,"남대문야채호떡","서울 중구 남대문로 12 (남대문로4가)","",37.56055841,126.97721438,"2022-09-18 13:33:38"
183,"수산포차청해","경기 수원시 영통구 영통로90번길 30 (망포동)","",37.2384629,127.05954046,"2022-09-19 22:53:34"
184,"적당","서울 중구 을지로 29 1층 (을지로1가)","",37.56646421,126.98104067,"2022-09-24 12:59:47"
185,"이에스씨","서울 강남구 언주로93길 28-2 1층 (역삼동)","",37.50344933,127.03982973,"2022-09-24 14:29:23"
186,"진주회관","서울 중구 세종대로11길 26 1층 (서소문동)","",37.56247878,126.9745336,"2022-10-01 14:10:06"
187,"한일관 압구정점","서울 강남구 압구정로38길 14 (신사동)","",37.52782463,127.0324914,"2022-10-16 21:46:04"
188,"역전회관","서울 마포구 토정로37길 47 (염리동)","",37.54292158,126.94700752,"2022-10-16 21:46:44"
189,"최미자소머리국밥 수원점","경기 수원시 영통구 광교중앙로266번길 22 (하동)","",37.292672,127.06837537,"2022-10-26 12:23:45"
190,"교동떡갈비","전북 전주시 완산구 은행로 52 (풍남동3가)","",35.81534741,127.15226154,"2022-11-19 21:15:16"
191,"김북순큰남비집 신사본점","서울 강남구 압구정로2길 15 신사아이빌 1층 (신사동)","",37.52069237,127.0199613,"2022-12-03 23:07:41"
192,"투썸플레이스 여주강변점","경기 여주시 주내로 31 (상동)","",37.29337935,127.65000373,"2022-12-04 20:28:08"
193,"숙정문","서울 종로구 삼청동 산 25-22","",37.59565461,126.98108536,"2022-12-06 19:29:03"
194,"터키이스탄불문화원","서울 서초구 반포대로 98 일신빌딩 2층 (서초동)","",37.48909633,127.00945292,"2022-12-23 18:27:03"
195,"브리끄","경기 남양주시 화도읍 북한강로 1696-2 (화도읍 구암리)","",37.65854597,127.37339453,"2023-01-01 07:25:58"
196,"어나더랜드","경기 평택시 안중읍 덕우2길 92-28 (안중읍 덕우리)","",37.01297737,126.90931109,"2023-01-01 07:27:07"
197,"그린웨일","경기 용인시 처인구 이동읍 어진로 771 1,2층 (이동읍 어비리)","",37.10650682,127.19094267,"2023-01-01 07:28:30"
198,"파파이스 강남점","서울 서초구 강남대로 341 1층 (서초동)","",37.49324851,127.02933281,"2023-01-02 16:20:43"
199,"하동관 명동본점","서울 중구 명동9길 12 (명동1가)","",,,"2023-01-03 17:54:43"
200,"란주칼면","서울 중구 소공로 64 동남빌딩 (충무로1가)","",,,"2023-01-03 17:55:21"
201,"미성옥","서울 중구 명동길 25-11 (명동1가)","",,,"2023-01-03 17:56:38"
202,"원조한치","서울 중구 명동7길 14-5 (명동1가)","",,,"2023-01-03 17:57:50"
203,"자갈치횟집","경남 거제시 능포로 251 (능포동)","",34.88493988,128.73731414,"2023-01-24 10:56:27"
204,"외도보타니아","경남 거제시 일운면 와현리 산 109","",34.76929638,128.71165107,"2023-01-24 18:48:32"
205,"스케줄 청담","서울 강남구 선릉로152길 37 1층 (청담동)","",37.52459579,127.04270308,"2023-01-29 17:13:43"
206,"김태완스시 방배본점","서울 서초구 효령로31길 21 평안빌딩 1층 (방배동)","",37.4821769,126.99614682,"2023-02-05 18:43:15"
207,"청남대","충북 청주시 상당구 문의면 청남대길 646 (문의면 신대리)","",36.46284608,127.49176536,"2023-02-11 10:32:33"
208,"혼고집","서울 마포구 동교로30길 1 (동교동)","",37.56070588,126.92454882,"2023-02-11 10:48:54"
209,"별마로천문대","강원 영월군 영월읍 영흥리 154-3 지하1층,1~3층","",37.19832924,128.48678249,"2023-02-12 13:11:59"
210,"말뚝곱창 천호점","서울 강동구 구천면로 140 스타시티빌딩 8층 (천호동)","",37.54227732,127.12051293,"2023-02-17 21:52:02"
211,"뚝섬미술관","서울 성동구 아차산로 33 삼일빌딩 지하1층 (성수동1가)","",37.54718711,127.04834232,"2023-03-01 21:50:23"
212,"북한산국립공원 백운대탐방지원센터","서울 강북구 우이동 산 68-1","",37.65825636,126.99121018,"2023-03-05 19:46:48"
213,"사랑의교회 제천기도동산","충북 제천시 백운면 덕동로 295 (백운면 덕동리)","",37.20664793,127.97106092,"2023-03-08 18:51:22"
214,"윤돈","경기 수원시 영통구 신원로 107 A동 106호 (신동)","",37.24818626,127.05347969,"2023-03-09 12:43:27"
215,"명백집","경기 수원시 영통구 신원로 124-1 1층 (신동)","",37.24851809,127.05491588,"2023-03-09 12:45:20"
216,"수원칼국수","경기 수원시 영통구 태장로 81 신영통e타운2 1층 103호 (망포동)","",37.23978069,127.05483967,"2023-03-09 12:47:51"
217,"홍화루","경기 수원시 영통구 매여울로40번길 56 (매탄동)","",37.27262477,127.04827896,"2023-03-09 12:50:07"
218,"옛맛청국장손두부","경기 수원시 영통구 매봉로49번길 3 2층 (매탄동)","",37.27231636,127.053101,"2023-03-09 18:38:01"
219,"아빠가만든전복장 아장아장","경기 수원시 영통구 권선로882번길 107-66 1층 102호 (신동)","",37.24611155,127.04123463,"2023-03-09 18:40:13"
220,"윤가곰탕","경기 수원시 영통구 매영로345번길 7 116호 (영통동)","",37.25259857,127.07084939,"2023-03-09 18:42:35"
221,"머내 영통점","경기 수원시 영통구 영일로 16-5 (영통동)","",37.24907298,127.07633749,"2023-03-09 18:44:33"
222,"혜장국","서울 서초구 사평대로56길 4 1층 101,102호 (서초동)","",37.50345657,127.02267551,"2023-03-11 06:25:14"
223,"젤렌","경기 용인시 수지구 동천로 534 1층 (고기동)","",37.3512195,127.05413056,"2023-03-16 10:47:30"
224,"한국교통안전공단 경기남부본부","경기 수원시 권선구 수인로 24 (서둔동)","",37.27064506,126.9961441,"2023-04-01 12:38:33"
225,"신선옥","서울 서초구 서초대로45길 9 (서초동)","",37.49303195,127.00908704,"2023-04-02 13:14:38"
226,"뮤지엄산","강원 원주시 지정면 오크밸리2길 260 (지정면)","",,,"2023-04-04 11:55:36"
227,"건봉령승호대","강원 춘천시 북산면 부귀리 산 59-9","",37.95532209,127.86218894,"2023-04-25 17:00:57"
228,"구둔역 (폐역)","경기 양평군 지평면 구둔역길 3 (지평면 일신리)","",37.43737408,127.68842188,"2023-04-25 17:01:49"
229,"벗고개터널","경기 양평군 양서면 목왕리","",37.5704323,127.39016329,"2023-04-25 17:02:14"
230,"덕주산성","충북 제천시 한수면 송계리","",36.86042777,128.08644948,"2023-04-25 17:02:40"
231,"운여해변","충남 태안군 고남면 장곡리","",36.43194761,126.35532507,"2023-04-25 17:03:12"
232,"거제식물원 정글돔","경남 거제시 거제면 거제남서로 3595 (거제면 서정리)","",34.85673294,128.57822917,"2023-05-30 18:53:00"
233,"포로수용소유적공원","경남 거제시 계룡로 61 (고현동)","",34.87635187,128.62543709,"2023-05-30 18:53:37"
234,"여차몽돌해수욕장","경남 거제시 남부면 여차길 22 (남부면 다포리)","",34.71389518,128.6259645,"2023-05-30 18:54:20"
235,"거제파노라마케이블카","경남 거제시 동부면 거제중앙로 288 (동부면 구천리)","",34.78425881,128.63298561,"2023-05-30 18:54:48"
236,"서울 성동구 연무장17길 3","성수동2가 272-38","",37.54113222,127.06079732,"2023-06-03 20:08:04"
237,"뮤지엄그라운드","경기 용인시 수지구 샘말로 122 (고기동)","",37.35641179,127.04408852,"2023-06-09 18:07:00"
238,"정관아쿠아드림파크 (휴업중)","부산 기장군 정관읍 모전로 7 (정관읍 모전리)","",35.34125955,129.16304834,"2023-06-09 18:18:09"
239,"한강6경바위늪경 강천섬","경기 여주시 강천면 강천리 645","",37.23270569,127.70031786,"2023-06-09 18:26:35"
240,"영흥수목원","경기 수원시 영통구 영통로 435 (영통동)","",37.26392349,127.0713301,"2023-06-10 06:43:12"
241,"세미원","경기 양평군 양서면 양수로 93 (양서면 용담리)","",37.5407477,127.32420471,"2023-06-10 07:29:08"
242,"시흥갯골생태공원","경기 시흥시 동서로 287 (장곡동)","",37.39069042,126.78098395,"2023-06-10 07:33:08"
243,"용문산관광지","경기 양평군 용문면 신점리 526-2","",37.54652041,127.58109141,"2023-06-10 07:35:40"
244,"부천호수식물원 수피아","경기 부천시 조마루로 15 (상동)","",37.50498298,126.74549208,"2023-06-10 07:38:06"
245,"게방식당","서울 강남구 선릉로131길 17 1층 (논현동)","",37.5172952,127.03944119,"2023-06-11 17:24:42"
246,"이하정간장게장","부산 수영구 광서로10번길 46 (광안동)","",35.16605139,129.11420462,"2023-06-11 17:26:26"
247,"북수원온천","경기 수원시 장안구 서부로 2139 SK허브블루 8,9층 8001, 9001호 (율전동)","",37.29944613,126.97163365,"2023-06-12 23:05:16"
248,"궁전횟집","전남 강진군 마량면 미항로 136 (마량면 마량리)","",34.44968339,126.8170002,"2023-06-13 05:39:59"
249,"예촌","전남 강진군 성전면 월남1길 2 (성전면 월남리)","",34.73469435,126.71558594,"2023-06-13 05:41:39"
250,"배진강","전남 강진군 병영면 남삼인길 6 10-1,10-2호 (병영면 삼인리)","",34.71356653,126.81570914,"2023-06-13 05:42:52"
251,"동진참치","경기 수원시 영통구 대학1로58번길 17 1층 (이의동)","",37.29868749,127.0455842,"2023-06-13 17:12:50"
252,"가미우동","서울 마포구 홍익로2길 23 1층 2호 (서교동)","",37.55468317,126.92385775,"2023-06-13 23:38:43"
253,"소마미술관","서울 송파구 위례성대로 51 (방이동)","",37.51688604,127.11800617,"2023-06-14 13:35:49"
254,"플레이존PC","경기 수원시 팔달구 효원로265번길 54 6층 601호 (인계동)","",37.26437498,127.0318886,"2023-06-16 10:19:33"
255,"마포소문난원조족발","서울 마포구 만리재로 19 (공덕동)","",37.54476581,126.95311218,"2023-06-17 14:12:33"
256,"스케줄 합정","서울 마포구 양화로6길 33 1층 (서교동)","",37.54912775,126.91607773,"2023-06-18 16:11:21"
257,"백운계곡관광지","경기 포천시 이동면 포화로 236-73 (이동면 도평리)","",38.07154901,127.4099696,"2023-07-08 18:46:49"
258,"수목원프로방스","경기 포천시 신북면 탑신로 1066 (신북면 금동리)","",37.94139341,127.13575976,"2023-07-08 18:49:27"
259,"청학비치","경기 남양주시 별내면 청학리 566","",37.70161083,127.10209196,"2023-07-08 18:55:11"
260,"장흥참숯가마","경기 양주시 장흥면 권율로 400 (장흥면 석현리)","",37.74462454,126.95983488,"2023-07-08 18:57:07"
261,"잠원 한강공원 수영장","서울 서초구 잠원동 121","",37.51951783,127.0099228,"2023-07-09 10:19:26"
262,"서진식당","서울 강남구 강남대로84길 33 지하1층 115호 (역삼동)","",37.49763416,127.03109866,"2023-07-09 11:48:17"
263,"꽃보다라면","서울 서초구 사임당로 178 이즈타워 B103호 (서초동)","",37.49220701,127.0290791,"2023-07-09 11:49:29"
264,"아소산겐안","서울 서초구 사평대로56길 7 한일유앤아이 2층 204~206호 (서초동)","",37.50330863,127.02360511,"2023-07-09 11:52:42"
265,"아빠곰수제돈까스","서울 서초구 사평대로56길 7 서초한일유앤아이 상가 1층 111~113호 (서초동)","",37.50315009,127.02341053,"2023-07-09 11:53:05"
266,"한감지식당","서울 서초구 사평대로56길 7 서초한일유앤아이빌딩 지하1층 110호 (서초동)","",37.50320773,127.02352365,"2023-07-09 11:55:05"
267,"하루스시","서울 서초구 강남대로 455 B118호 (서초동)","",37.50286151,127.02466805,"2023-07-09 11:55:48"
268,"후후돈","서울 서초구 서운로 226 서초오피스텔 지하1층 3호 (서초동)","",37.50302877,127.0217367,"2023-07-09 11:57:22"
269,"동서네낙지 본점","전북 익산시 인북로46길 47 (영등동)","",35.95128638,126.96579439,"2023-07-14 12:53:40"
270,"배산공원식당","전북 익산시 동서로 106 1층 (모현동2가)","",35.95550061,126.94619036,"2023-07-14 12:55:03"
271,"한일식당","전북 익산시 황등면 황등로 106 (황등면 황등리)","",36.00140536,126.94476614,"2023-07-14 12:56:58"
272,"백인숙꽃게장","전북 익산시 동서로45길 37 1층 (어양동)","",35.95189257,126.98026567,"2023-07-14 12:58:01"
273,"전주소바1987","전북 익산시 목천로 281 (인화동2가)","",35.92891656,126.95234282,"2023-07-14 13:00:20"
274,"재건반점","전북 익산시 오산면 광양길 46 (오산면 송학리)","",35.94174867,126.92179981,"2023-07-14 13:01:42"
275,"진미면막국수","전북 익산시 학곤로 79 (송학동)","",35.93769164,126.93783314,"2023-07-14 13:04:58"
276,"밤실마을","광주 북구 밤실로 163-9 (풍향동)","",35.16166947,126.93434624,"2023-07-14 22:11:06"
277,"유명회관","광주 북구 금남로131번길 18 (북동)","",35.15522148,126.90965748,"2023-07-14 22:11:40"
278,"오돌뼈와막창골","광주 북구 운용로 11 1층 (운암동)","",35.17395989,126.88911743,"2023-07-14 22:15:32"
279,"생돈까스","광주 북구 설죽로214번길 100 2층 (용봉동)","",35.17772164,126.90323894,"2023-07-14 22:17:33"
280,"창평국밥","광주 북구 천지인로 103 1층 (오치동)","",35.18423467,126.91004259,"2023-07-14 22:19:59"
281,"대왕김밥","광주 서구 염화로57번길 1 금호타운1차아파트 상가동 1층 (화정동)","",35.13945792,126.87287816,"2023-07-14 22:22:05"
282,"영미오리탕","광주 북구 경양로 126 1층 (유동)","",35.16138362,126.90552043,"2023-07-14 22:24:17"
283,"진식당 본점","광주 북구 중흥로 105 1층 (신안동)","",35.1633775,126.90560813,"2023-07-14 22:25:39"
284,"두꺼비게장백반","광주 북구 중흥로 76 (신안동)","",35.16400597,126.90248356,"2023-07-14 22:26:54"
285,"KBS 별관","서울 영등포구 여의대방로 359 (여의도동)","",37.51861064,126.92952315,"2023-07-19 14:03:17"
286,"버드나무집 서초본점","서울 서초구 효령로 434 1층 (서초동)","",37.48913945,127.03116299,"2023-07-20 11:43:15"
287,"커피베르디","경기 용인시 기흥구 관곡로64번길 14-2 (구갈동)","",37.2815445,127.11271681,"2023-07-23 05:38:33"
288,"화담숲","경기 광주시 도척면 도웅리 산 33","",37.34136724,127.28916312,"2023-07-31 10:23:32"
289,"오죽헌","강원특별자치도 강릉시 율곡로3139번길 24 (죽헌동)","",37.7792478,128.87754541,"2023-08-17 20:44:21"
290,"경포생태저류지","강원 강릉시 죽헌동","",37.78170931,128.88474017,"2023-08-17 20:44:34"
291,"평양손만두","경기 파주시 와석순환로 507 2층 (와동동)","",37.72457594,126.76191811,"2023-08-21 17:55:01"
292,"탑데판철판코스요리","경기 수원시 권선구 곡선로49번길 13-21 1층 (곡반정동)","",37.23977542,127.02900439,"2023-08-23 10:41:23"
293,"호미지","서울 서초구 사평대로57길 63-3 (반포동)","",37.50688048,127.02221284,"2023-08-25 17:32:23"
294,"분노지","서울 서초구 주흥3길 8 (반포동)","",37.5044806,127.01999092,"2023-08-25 17:32:43"
295,"꿉당 신사","서울 서초구 강남대로 615 금정빌딩 1층 (잠원동)","",37.51662269,127.01903947,"2023-08-25 17:33:10"
296,"영동포차나","서울 강남구 언주로148길 14 청호불교문화원 나동 2층 208호 (논현동)","",37.5206894,127.03624957,"2023-08-25 17:33:24"
297,"청간막국수","서울 서초구 서초대로78길 22 홍우제1빌딩 2층 (서초동)","",37.4958078,127.02754709,"2023-08-25 17:33:46"
298,"온유월식당 본점","서울 서초구 신반포로 177 반포쇼핑타운3동 지하1층 16~22호 (잠원동)","",37.50607882,127.00342463,"2023-08-25 17:36:50"
299,"이토","경기 수원시 팔달구 권광로196번길 57 삼환아르누보파크 1층 105호 (인계동)","",37.26444034,127.03647249,"2023-08-30 13:09:17"
300,"효자면","경기 수원시 권선구 권선로 774-1 1층 (권선동)","",37.25658169,127.03564356,"2023-08-30 13:09:34"
301,"서초구립반포도서관","서울 서초구 고무래로 34 (반포동)","",37.5024886,127.01254432,"2023-09-08 18:45:55"
302,"대한민국역사박물관","서울 종로구 세종대로 198 (세종로)","",37.57398697,126.9778578,"2023-09-10 07:02:01"
303,"서울도서관","서울 중구 세종대로 110 (태평로1가)","",37.56625644,126.97792801,"2023-09-10 07:02:23"
304,"세실마루","서울 중구 세종대로19길 16 (정동)","",37.56672462,126.97617568,"2023-09-10 07:04:33"
305,"서울역 옥상정원","서울 중구 한강대로 405 (봉래동2가)","",37.5559951,126.97021934,"2023-09-10 07:06:35"
306,"세운옥상","서울 종로구 청계천로 159 (장사동)","",37.56932179,126.99524131,"2023-09-10 07:10:47"
307,"국립항공박물관","서울 강서구 하늘길 177 1~4층 (공항동)","",37.55686859,126.80886929,"2023-09-10 07:11:27"
308,"신세계백화점 강남점","서울 서초구 신반포로 176 (반포동)","",37.50530573,127.00432033,"2023-09-10 07:15:28"
309,"문우당서림","강원 속초시 중앙로 45 (교동)","",38.20028816,128.5813793,"2023-09-10 14:59:23"
310,"성동구립 숲속도서관","서울 성동구 매봉길 49-29 (옥수동)","",37.54590628,127.01080894,"2023-09-11 20:15:17"
311,"삼청공원숲속도서관","서울 종로구 북촌로 134-3 삼청공원 (삼청동)","",37.5879777,126.9840877,"2023-09-11 20:15:36"
312,"아차산숲속도서관","서울 광진구 영화사로 139 (광장동)","",37.5524707,127.10087871,"2023-09-11 20:16:11"
313,"오동숲속도서관","서울 성북구 화랑로13가길 110-10 1층 (하월곡동)","",37.61015857,127.04095344,"2023-09-11 20:16:27"
314,"한내지혜의숲도서관","서울 노원구 마들로 86 (월계동)","",37.62356315,127.06878604,"2023-09-11 20:16:46"
315,"서초구립양재도서관","서울 서초구 양재천로 33 (양재동)","",37.47369367,127.03364367,"2023-09-12 21:20:02"
316,"해피누디","경기 수원시 영통구 도청로 95 유니코어 알파동 지하1층 104호 (이의동)","",37.29102417,127.04785766,"2023-09-13 15:08:56"
317,"신사교자냉삼","서울 강남구 강남대로152길 21 1층 (신사동)","",37.51764769,127.02106225,"2023-09-14 13:42:40"
318,"베라커피아울렛","경기 의왕시 이미로 40 인덕원 IT벨리 A동 지하1층 (포일동)","",37.40176644,126.9910776,"2023-09-19 12:00:42"
319,"책그리고","서울 서초구 방배천로 132 (방배동)","",37.48763619,126.98559023,"2023-09-23 07:25:07"
320,"나가하마만게츠","부산 해운대구 우동1로 57 대영빌딩 1층 (우동)","",35.16656398,129.15748627,"2023-10-01 13:03:22"
321,"플립사이드마켓 부산광안리","부산 수영구 광안해변로255번길 5 1,2층 (민락동)","",35.15535585,129.12166341,"2023-10-01 20:23:28"
322,"칠암일광정소갈비찜","부산 기장군 일광읍 일광로 645 (일광읍 칠암리)","",35.29964599,129.25799735,"2023-10-03 17:09:29"
323,"포항돼지국밥","부산 부산진구 서면로68번길 27 (부전동)","",35.15577851,129.05853319,"2023-10-06 22:18:34"
324,"국립현대미술관 청주","충북 청주시 청원구 상당로 314 (내덕동)","",,,"2023-10-07 11:49:25"
325,"송쓰버거 본점","경기 평택시 중앙시장로25번길 12 1층 (신장동)","",37.08076281,127.05305146,"2023-10-09 21:09:05"
326,"카린지린가네스낵바 신촌점","서울 서대문구 연세로5길 2 1층 (창천동)","",37.55736665,126.93657603,"2023-10-11 18:40:28"
327,"진미기사식당","서울 강북구 한천로 1163 1층 (수유동)","",37.64742937,127.01612214,"2023-10-12 00:00:48"
328,"신동궁감자탕뼈숯불구이 선릉직영점","서울 강남구 선릉로86길 39 1층 (대치동)","",37.50408482,127.05289263,"2023-10-13 10:12:25"
329,"서울시립 남서울미술관","서울 관악구 남부순환로 2076 (남현동)","",37.47607715,126.97948304,"2023-10-13 12:36:27"
330,"하이드","서울 서초구 방배중앙로 164 1,2층 (방배동)","",37.49371991,126.98659774,"2023-10-13 22:04:41"
331,"보승회관 교대역직영점","서울 서초구 서초대로 272 1층 (서초동)","",37.49272359,127.01158152,"2023-10-14 12:52:02"
332,"서초대가 서초법원본점","서울 서초구 서초대로 269 부림빌딩 1층 (서초동)","",37.49320476,127.01129889,"2023-10-14 12:52:21"
333,"선녀풍","인천 중구 용유서로 272 (을왕동)","",37.44439552,126.37873079,"2023-10-16 17:41:45"
334,"해안길횟집","경북 포항시 남구 동해면 호미로3192번길 21-15 (동해면 임곡리)","",35.99107859,129.45217051,"2023-10-16 17:42:06"
335,"용마봉","서울 중랑구 면목동 산 1-2","",37.57115534,127.09574212,"2023-10-16 19:42:23"
336,"달맞이근린공원","서울 성동구 금호동4가 27","",37.5431947,127.02101512,"2023-10-16 22:17:32"
337,"코코발리비비큐","서울 마포구 홍익로3길 20 2층 (서교동)","",37.55380344,126.92192342,"2023-10-17 22:54:04"
338,"본동기사식당","전남 해남군 송지면 땅끝해안로 1796 (송지면 송호리)","",34.3167112,126.51730269,"2023-10-18 15:31:35"
339,"둔율담","전북 군산시 둔배미길 12-4 1층 (둔율동)","",35.98150797,126.71521048,"2023-10-18 15:58:47"
340,"최종희부뚜막","전북 군산시 옥산면 백석로 58-2 (옥산면 당북리)","",35.94557712,126.71925519,"2023-10-18 15:59:31"
341,"옹고집쌈밥","전북 군산시 나포면 서왕길 34 (나포면 서포리)","",36.01701375,126.79884713,"2023-10-18 15:59:49"
342,"쌍용반점","전북 군산시 내항2길 121 (금동)","",35.99306879,126.71023724,"2023-10-18 16:00:07"
343,"동춘역 인천1호선","인천광역시 연수구 경원대로 지하 180","",37.40457612,126.68085105,"2023-10-18 23:09:57"
344,"별당김치찜","서울 서대문구 명물1길 2 (창천동)","",37.55780495,126.93734526,"2023-10-19 23:12:12"
345,"망포글빛도서관","경기 수원시 영통구 망포로 100 (망포동)","",37.24072213,127.04447636,"2023-10-20 13:25:01"
346,"매여울도서관","경기 수원시 영통구 효원로 415 (매탄동)","",,,"2023-10-20 13:31:21"
347,"이모네손칼국수","경기 수원시 팔달구 중부대로223번길 20-7 1층 (우만동)","",37.27688032,127.04131342,"2023-10-20 14:35:35"
348,"선비칼국수 광교중앙역점","경기 수원시 영통구 도청로 95 베타동 b203호 (이의동)","",37.29061869,127.04788447,"2023-10-20 14:36:06"
349,"마포본가 본점","경기 수원시 팔달구 경수대로519번길 10 1, 2층 (인계동)","",37.27266732,127.02813305,"2023-10-20 14:36:34"
350,"프롬 샐라드","서울 서초구 서초대로40길 77 105호 (서초동)","",37.48826745,127.00873255,"2023-10-20 18:45:08"
351,"파주출판도시","경기 파주시 회동길 145 (문발동)","",37.7090807,126.68663986,"2023-10-20 18:47:56"
352,"비밀베이커리","서울 서초구 반포대로 4 1층 (서초동)","",37.48121215,127.01316034,"2023-10-20 18:50:14"
353,"원조큰나루밴댕이회무침","인천 남동구 문화서로4번길 61-23 (구월동)","",37.44569761,126.69839601,"2023-10-20 19:01:17"
354,"환호공원 스페이스워크","경북 포항시 북구 두호동 산 8","",36.06545686,129.38974118,"2023-10-21 12:51:30"
355,"서초구립내곡도서관","서울 서초구 청계산로7길 9-20 (신원동)","",37.45211751,127.05442922,"2023-10-21 16:28:19"
356,"고구동산공원(노량진근린공원)","서울 동작구 매봉로6길 16 (본동)","",37.50867209,126.95419341,"2023-10-21 19:40:11"
357,"하늘공원","서울 마포구 상암동 481-72","",37.5685397,126.88688383,"2023-10-21 19:41:33"
358,"고려천도공원","인천 강화군 송해면 당산리 388-1","",37.80394732,126.46270812,"2023-10-21 19:42:39"
359,"삼성해맞이공원","서울 강남구 삼성동 79-1","",37.52108443,127.06144756,"2023-10-21 21:00:06"
360,"사육신역사공원","서울 동작구 노량진로 191 (노량진동)","",37.51407922,126.94812736,"2023-10-21 21:00:43"
361,"청운공원","서울 종로구 청운동 7-4","",37.59100222,126.96635794,"2023-10-21 21:01:33"
362,"블루메쯔 노들섬점","서울 용산구 이촌동 302-146 노들섬복합문화공간 3층 B-13호","",37.51748889,126.9578756,"2023-10-21 21:19:27"
363,"광진교8번가","서울 강동구 구천면로 77 (천호동)","",37.54450006,127.11418878,"2023-10-22 07:59:16"
364,"육설모 춘천점","강원 춘천시 영서로2279번길 16 1층 (온의동)","",37.86383884,127.72057349,"2023-10-23 06:17:07"
365,"수종사","경기 남양주시 조안면 북한강로433번길 186 (조안면 송촌리)","",37.57105042,127.30228534,"2023-10-24 19:21:09"
366,"화야","서울 서초구 마방로6길 7-46 2층 (양재동)","",37.47609255,127.04348041,"2023-10-28 16:05:45"
367,"통삼국 본점","충남 천안시 서북구 불당9길 30 1층 (불당동)","",36.80287453,127.10955958,"2023-11-04 08:03:44"
368,"수라비스트로","충남 천안시 서북구 불당30길 25 (불당동)","",36.8099841,127.10375121,"2023-11-04 08:05:30"
369,"진미도삭면","서울 서초구 방배로16길 11-11 1층 (방배동)","",37.48514121,126.99602003,"2023-11-04 13:02:03"
370,"육뜸","서울 금천구 벚꽃로40길 8 1층 (가산동)","",37.48204008,126.88334774,"2023-11-05 15:30:07"
371,"여장군 가산점","서울 금천구 가산디지털1로 142 2층 (가산동)","",37.47834226,126.88325739,"2023-11-05 15:31:22"
372,"산골정육식당","경기 안양시 만안구 안양천서로 127 (안양동)","",37.39151792,126.94033757,"2023-11-05 15:33:04"
373,"명가소갈비","서울 금천구 벚꽃로38길 42 1층 (가산동)","",37.48278221,126.88487747,"2023-11-05 15:33:32"
374,"고도식 마포점","서울 마포구 마포대로1길 16 A&D빌딩 1층 (용강동)","",37.53970142,126.94315367,"2023-11-07 19:48:59"
375,"다락투","서울 마포구 와우산로21길 4-3 (서교동)","",37.55271159,126.92354741,"2023-11-07 23:17:16"
376,"봉산옥 서초동본점","서울 서초구 반포대로8길 5-6 1층 (서초동)","",37.48334761,127.01246423,"2023-11-08 05:52:22"
377,"라멘모토 본점","서울 서초구 신반포로 333 1층 (잠원동)","",37.51096419,127.020246,"2023-11-08 20:26:22"
378,"공항칼국수","서울 강서구 공항대로 18-1 (공항동)","",37.56097219,126.80915761,"2023-11-08 23:42:12"
379,"스톤504 스테이크하우스","서울 동작구 상도로61길 54 1층 (상도동)","",37.49463215,126.95777084,"2023-11-12 22:38:05"
380,"비놀릭","서울 강남구 논현로63길 69 1층 (역삼동)","",37.49119072,127.03549014,"2023-11-13 06:21:15"
381,"보물섬","서울 강남구 강남대로120길 40 1층 (논현동)","",37.50763282,127.02657877,"2023-11-14 17:42:06"
382,"옥토스","서울 서초구 사평대로52길 11 1층 (서초동)","",37.50268173,127.02256219,"2023-11-14 17:42:22"
383,"알촌 홍대점","서울 마포구 와우산로13길 19 지층 2호 (상수동)","",37.54934821,126.92224266,"2023-11-14 22:49:34"
384,"도마 인사점","서울 종로구 인사동8길 6-1 (관훈동)","",37.57377917,126.98584534,"2023-11-15 16:49:01"
385,"하늘누리 비행학교","경기 화성시 우정읍 평밭길 365 (우정읍 호곡리)","",37.10660763,126.76485959,"2023-11-24 10:41:34"
386,"동남회관 역삼본점","서울 강남구 언주로93길 24 태선빌딩 1층 동남회관 (역삼동)","",37.50342945,127.03999597,"2023-11-27 12:03:15"
387,"윤밀원","경기 성남시 분당구 백현로 154 1층 (정자동)","",37.37269697,127.1150478,"2023-12-02 15:45:14"
388,"탄천수영장","경기 성남시 분당구 정자동 100-3","",37.36695464,127.10945325,"2023-12-20 17:37:26"
389,"올림픽공원 올림픽수영장","서울 송파구 올림픽로 424 (방이동)","",37.52100013,127.12659629,"2023-12-20 18:04:54"
390,"옥경이네건생선","서울 중구 퇴계로85길 7 1층 (황학동)","",37.56609471,127.0195365,"2023-12-21 00:25:19"
391,"그집","경기 성남시 분당구 황새울로258번길 42 1층 (수내동)","",37.378839,127.11530557,"2023-12-21 17:03:46"
392,"미스터서왕만두","서울 서대문구 신촌역로 16 103호 (대현동)","",37.5580909,126.94335813,"2023-12-21 17:04:49"
393,"국시와돈까스","충남 예산군 응봉면 충서로 281 (응봉면 송석리)","",36.664793,126.77220153,"2023-12-23 21:57:54"
394,"깡통만두","서울 종로구 북촌로2길 5-6 (재동)","",37.57816524,126.98608451,"2023-12-23 22:08:06"
395,"스테이락호텔","서울 중구 퇴계로 211-5 (충무로4가)","",37.56193362,126.99501768,"2023-12-24 08:20:08"
396,"솔라고호텔","서울 중구 충무로2길 9 (충무로4가)","",37.56278772,126.99400575,"2023-12-24 08:23:02"
397,"선셋클라우드","서울 마포구 양화로 188 7층 (동교동)","2만원 이하 점심 부페 주말도함",37.55756099,126.92675214,"2023-12-24 08:29:05"
398,"호텔그레이스리 서울","서울 중구 세종대로12길 12 (남대문로4가)","점심부페 주말에도 함",37.56161792,126.97691073,"2023-12-24 09:25:11"
399,"소테츠 호텔즈 더 스프라지르 서울 명동","서울 중구 남대문로5길 15 (북창동)","점심부페 주말은 안함",37.56205435,126.97878039,"2023-12-24 09:26:01"
400,"늘봄숯불갈비","서울 성동구 왕십리로5길 12 (성수동1가)","",37.54700847,127.04436348,"2023-12-24 19:37:16"
401,"돈그리아","서울 강남구 선릉로86길 6-5 1층 (대치동)","",37.50279917,127.05064342,"2023-12-24 19:55:02"
402,"청실홍실","서울 서초구 서래로10길 9 (반포동)","",37.4995664,126.99892792,"2023-12-25 09:02:19"
403,"영스타","서울 서초구 서래로8길 1 2층 (반포동)","",37.49871945,126.99858414,"2023-12-25 09:04:33"
404,"차이797 서래마을점 주차장","서울 서초구 동광로 78 (방배동)","",37.49284816,126.99110296,"2023-12-25 09:05:25"
405,"도우룸","서울 서초구 동광로 99 2층 (방배동)","",37.493825,126.99334635,"2023-12-25 09:05:54"
406,"봉피양샤브 서래점","서울 서초구 동광로 89 (방배동)","",37.49370239,126.99204368,"2023-12-25 09:06:12"
407,"서래오뎅","서울 서초구 사평대로26길 22 (반포동)","",37.49920239,126.99898673,"2023-12-25 09:06:36"
408,"베스퍼","서울 서초구 사평대로22길 17 1층 (반포동)","",37.49875548,126.99787847,"2023-12-25 09:07:44"
409,"구이정","서울 서초구 서래로 30 1,2층 (반포동)","",37.49755895,126.99852084,"2023-12-25 09:07:59"
410,"은아네","서울 종로구 종로 252-5 (종로5가)","",37.57065161,127.00589979,"2023-12-26 22:01:34"
411,"천일삼계탕","서울 중구 장충단로13길 43 2층 (을지로6가)","",37.56802786,127.00683682,"2023-12-26 22:02:31"
412,"영광식당","서울 동대문구 홍릉로5길 14 (제기동)","",37.58270987,127.04347441,"2023-12-26 22:03:42"
413,"남녀공학","서울 서초구 방배로31길 28 두한빌딩 1층 (방배동)","",37.49057033,126.99003127,"2023-12-26 23:03:34"
414,"주","서울 서초구 동광로19길 16 (방배동)","",37.49316877,126.98932531,"2023-12-26 23:09:01"
415,"한이식당","서울 영등포구 영신로34길 40 (영등포동4가)","",37.51861844,126.90468703,"2023-12-29 22:21:24"
416,"묘오또 방배점","서울 서초구 방배동 850-1 세광빌딩 1층","",37.49033268,126.99305719,"2023-12-30 15:25:59"
417,"고향풍천장어","서울 서초구 방배로 189 (방배동)","",37.49029295,126.99167316,"2023-12-30 15:27:13"
418,"굴다리식당","서울 마포구 새창로 8-1 (도화동)","",37.54210872,126.95080552,"2024-01-01 10:04:24"
419,"오로지라멘 방배점","서울 서초구 방배중앙로 188 삼호상가 2동 1층 312호 (방배동)","",37.49582458,126.98584197,"2024-01-01 12:47:08"
420,"오레노라멘 강남점","서울 강남구 테헤란로1길 28-9 2층 (역삼동)","",37.50050372,127.02807808,"2024-01-01 15:24:18"
421,"멘노아지","서울 강남구 강남대로94길 27 1층 (역삼동)","",37.49985104,127.02950502,"2024-01-01 15:24:33"
422,"류센소 강남점","서울 강남구 강남대로102길 31 1층 (역삼동)","",37.50308788,127.02774881,"2024-01-01 15:24:42"
423,"겐조라멘 강남점","서울 서초구 강남대로 455 (서초동)","",37.502703,127.02433324,"2024-01-01 15:24:55"
424,"신창국밥 부산역점","부산 동구 중앙대로214번길 3-4 (초량동)","",35.11638667,129.04128106,"2024-01-01 20:43:41"
425,"본전돼지국밥","부산 동구 중앙대로214번길 3-8 (초량동)","",35.11657954,129.04138678,"2024-01-01 20:44:03"
426,"평산옥","부산 동구 초량중로 26 (초량동)","",35.114287,129.03710061,"2024-01-01 22:12:40"
427,"진역밀면","부산 동구 진성로9번길 12 1층 (수정동)","",35.12939355,129.04783187,"2024-01-01 22:16:51"
428,"일품향","부산 동구 대영로243번길 22 (초량동)","",35.1131305,129.03770791,"2024-01-01 22:24:32"
429,"영동밀면영동국밥","부산 동구 중앙대로209번길 12 (초량동)","",35.11619992,129.03931323,"2024-01-01 22:24:54"
430,"초량불백","부산 동구 초량로 36 (초량동)","",35.12060099,129.03857841,"2024-01-01 22:26:42"
431,"신림정","서울 관악구 봉천로 248 (신림동)","",37.48863199,126.92886385,"2024-01-01 22:40:48"
432,"오미식당","서울 영등포구 국제금융로 10 L3층 (여의도동)","",37.52451868,126.92539074,"2024-01-01 22:56:09"
433,"신라스테이 구로","서울 동작구 시흥대로 596 (신대방동)","부페식당 쿠폰 10%",37.48560613,126.90423261,"2024-01-03 22:59:22"
434,"골드리버호텔","서울 금천구 서부샛길 584 (가산동)","",37.47833228,126.87698048,"2024-01-03 23:04:51"
435,"코리아나호텔","서울 중구 세종대로 135 (태평로1가)","",37.56813837,126.9766314,"2024-01-03 23:09:54"
436,"명품잔치국수","서울 마포구 동교로 103 1층 (서교동)","",37.55468685,126.91349117,"2024-01-05 22:49:11"
437,"강경불고기 강동구청점","서울 강동구 성안로 7-13 1층 (성내동)","",37.52473373,127.12841037,"2024-01-06 11:56:56"
438,"스시노칸도 신림포도몰점","서울 관악구 신림로 330 9층 (신림동)","",37.48385026,126.93023421,"2024-01-08 21:53:25"
439,"스시노칸도 어린이대공원역점","서울 광진구 광나루로 369 광진두산위브파크 2층 201호 (군자동)","",37.5484488,127.07095079,"2024-01-08 21:53:50"
440,"화곡영양족발","서울 강서구 초록마을로2길 48 화곡본동시장 1층 가-3호 (화곡동)","",37.54325865,126.84350225,"2024-01-17 22:01:15"
441,"육탕상점","서울 강서구 강서로 148 1층 (화곡동)","",37.54017679,126.84181597,"2024-01-17 22:05:44"
442,"틸란","서울 강서구 강서로31길 7 (화곡동)","",37.54033953,126.84089684,"2024-01-17 22:08:01"
443,"이현우스시","서울 강서구 강서로33길 26 1층 (화곡동)","",37.54181011,126.83835005,"2024-01-17 22:09:30"
444,"이치방라멘","서울 강서구 강서로 271 1층 (내발산동)","",37.55000227,126.83594684,"2024-01-17 22:16:21"
445,"육짬뽕","서울 강서구 강서로 263-28 1층 (내발산동)","",37.54948144,126.83461264,"2024-01-17 22:20:39"
446,"메밀이랑면이랑","서울 강서구 강서로 263-17 (내발산동)","",37.54926969,126.83524683,"2024-01-17 22:23:25"
447,"양천향교","서울 강서구 양천로47나길 53 (가양동)","",37.57309113,126.83983556,"2024-01-20 13:12:50"
448,"목동 송식당 먹고기","서울 강서구 마곡동로10길 23 마곡파크뷰대방디엠시티오피스텔 134,135호 (마곡동)","",37.5687002,126.83889188,"2024-01-20 13:13:47"
449,"카메야라멘","서울 강서구 강서로 489-4 2층 (가양동)","",37.56952136,126.84114721,"2024-01-20 13:16:57"
450,"쇼와초밥","서울 강서구 양천로47가길 43 1층 102호 (가양동)","",37.57126778,126.84002964,"2024-01-20 13:20:01"
451,"소평루","서울 강서구 강서로 447 (마곡동)","",37.56561792,126.84023867,"2024-01-20 13:28:07"
452,"부부 손칼국수김치만두","서울 강서구 강서로56가길 47 (등촌동)","",37.56168856,126.84015199,"2024-01-20 13:31:57"
453,"속초명가 본점","서울 강서구 강서로56길 90 (등촌동)","",37.55899037,126.84373646,"2024-01-20 13:36:43"
454,"키누카누 발산점","서울 강서구 공항대로 247 퀸즈파크나인 지하1층 103,104호 (마곡동)","",37.559287,126.83526778,"2024-01-20 13:38:45"
455,"이찌멘 홍대점","서울 마포구 홍익로5안길 34 1층 (서교동)","",37.55340186,126.92097547,"2024-01-21 11:46:29"
456,"콘부 을지로점","서울 중구 수표로 42-19 1층 (저동2가)","",37.56508501,126.99034167,"2024-01-21 18:35:46"
457,"콘부 연남","서울 마포구 동교로46길 42-20 1층 (연남동)","",37.56185862,126.92655665,"2024-01-21 18:35:59"
458,"이화달팽이길","서울 종로구 이화동 9-244","",37.57689902,127.00757347,"2024-01-23 14:59:10"
459,"밴건디스테이크하우스","서울 서초구 사평대로22길 5 1층 (반포동)","",37.49933212,126.99772918,"2024-01-23 17:35:22"
460,"장지리해장국","경기 용인시 기흥구 삼성2로42번길 4 1층 (농서동)","",37.22517128,127.07718439,"2024-01-24 06:11:21"
461,"데블스도어 센트럴시티점","서울 서초구 사평대로 205 반포천 복개주차장 (반포동)","",37.50493966,127.00894824,"2024-01-26 09:40:48"
462,"일번지육개장","서울 서초구 신반포로 195 반포쇼핑타운 5동 지하층 11호~14호 (잠원동)","",37.50660494,127.0053055,"2024-01-26 09:41:53"
463,"모트32 서울","서울 서초구 신반포로 176 센트럴시티 (JW메리어트호텔 옆 단독건물 2층) (반포동)","",37.50324245,127.0035851,"2024-01-26 09:42:48"
464,"텍사스데브라질 센트럴시티점","서울 서초구 사평대로 205 파미에가든 4층 (반포동)","",37.50388386,127.00619311,"2024-01-26 09:43:02"
465,"모던눌랑 센트럴시티점","서울 서초구 사평대로 205 센트럴시티 파미에가든 4층 BP4-6호 (반포동)","",37.50406403,127.00674051,"2024-01-26 09:43:26"
466,"스타필드 수원","경기 수원시 장안구 수성로 175 지하1,2층, 1~8층 (정자동)","",37.2874834,126.9908385,"2024-01-26 23:25:55"
467,"요시","서울 성동구 서울숲6길 22 1층 (성수동1가)","",37.54728617,127.04385668,"2024-01-27 21:48:36"
468,"낙성기사식당","서울 관악구 봉천로 550 (봉천동)","",37.47808279,126.95876148,"2024-01-30 06:33:07"
469,"호석촌","서울 송파구 백제고분로39길 36 (석촌동)","",37.50733287,127.10339437,"2024-01-31 12:13:48"
470,"연하동","서울 마포구 연남로 6 1,2층 (연남동)","",37.56051243,126.92355755,"2024-02-04 17:13:03"
471,"바다회사랑","서울 마포구 동교로27길 60 1층 (연남동)","",37.56041168,126.92106314,"2024-02-08 18:50:16"
472,"시골밥상 압구정점","서울 강남구 논현로175길 68 (신사동)","",37.52413623,127.02362072,"2024-02-10 19:56:37"
473,"설빙 교대역점","서울 서초구 서초대로54길 24 로얄빌딩 2층 (서초동)","",37.49317899,127.01594871,"2024-02-11 14:55:24"
474,"정가네손칼국수","서울 강남구 선릉로129길 11 (논현동)","",37.51613789,127.04067578,"2024-02-11 20:14:40"
475,"망원시장손칼국수","서울 마포구 망원로8길 29 1층 (망원동)","",37.5561806,126.90627344,"2024-02-13 19:34:51"
476,"훈훈호떡","서울 마포구 포은로6길 25 지하1층 (망원동)","",37.55598964,126.90634611,"2024-02-13 19:43:04"
477,"펠리시떼","서울 서초구 서초대로 79 1층 (방배동)","",37.48708891,126.99091368,"2024-02-15 14:50:40"
478,"국회부산도서관","부산 강서구 명지국제1로 161 (명지동)","",35.10346421,128.90441102,"2024-02-15 17:00:23"
479,"옥동식 서교점","서울 마포구 양화로7길 44-10 1층 (서교동)","",37.55267657,126.91452107,"2024-02-16 18:46:32"
480,"담택","서울 마포구 동교로12안길 51 1층 (서교동)","",37.5544538,126.91516638,"2024-02-16 18:46:53"
481,"세상끝의라멘","서울 마포구 양화로7길 6-5 와와빌딩 2동 2층 (서교동)","",37.55165625,126.91522614,"2024-02-16 18:47:09"
482,"우동카덴 합정점","서울 마포구 양화로7안길 2-1 1,2층 (서교동)","",37.55167505,126.91506089,"2024-02-16 18:49:42"
483,"익스첼 합정본점","서울 마포구 토정로 33-1 (합정동)","",37.54576604,126.91470096,"2024-02-16 18:51:04"
484,"시오","서울 마포구 독막로2길 30 1층 (합정동)","",37.54727401,126.91427829,"2024-02-16 18:51:31"
485,"아소토","서울 마포구 독막로2길 34 1층 (합정동)","",37.547137,126.91420602,"2024-02-16 18:52:00"
486,"이키","서울 마포구 성지길 36-20 1층 (합정동)","",37.54727644,126.91268045,"2024-02-16 18:53:25"
487,"라무라","서울 마포구 포은로 21 1층 101호 (합정동)","",37.54978894,126.9085968,"2024-02-16 18:56:12"
488,"인제기적의도서관","강원 인제군 인제읍 인제로140번길 52-7 (인제읍 상동리)","",38.06189297,128.1706121,"2024-02-16 23:12:12"
489,"헤비스테이크 강남역점","서울 강남구 테헤란로4길 32 1층 103호 (역삼동)","",37.49630451,127.03017082,"2024-02-17 17:34:26"
490,"농민백암순대 강남직영점","서울 강남구 역삼로3길 20-4 (역삼동)","",37.49491301,127.03150463,"2024-03-01 17:55:03"
491,"스파렉스사우나","서울 중구 장충단로 247 굿모닝시티쇼핑몰 지하3층 (을지로6가)","",37.56650155,127.00730076,"2024-03-04 03:53:35"
492,"봉밀가","서울 강남구 선릉로 664 1층 (삼성동)","",37.51580313,127.0420816,"2024-06-17 22:25:21"
493,"봉피양 방이점 본관","서울 송파구 양재대로71길 5 (방이동)","",37.51020765,127.12599897,"2024-07-14 21:30:31"
494,"고메스퀘어 신대방직영점","서울 동작구 신대방1가길 38 동작성원상떼빌 상가 105동 지하1층 102호 (신대방동)","",37.48823068,126.9063765,"2024-07-21 09:42:15"